[{"name": "Asagaya",
"type": "Oriental",
"location": {
"lat": 41.4084241,
"lng": 2.1708059},
"address": "Carrer de Sant Antoni Maria Claret, 148, 08025 Barcelona, Espanya",
"review" :4.7},
{"name": "Sushi Taller",
"type": "Take Away",
"location": {
"lat": 41.3889918,
"lng": 2.1581284},
"address": "Carrer de València, 183, 08011 Barcelona, Espanya",
"review" :4.7},
{"name": "Ristorante Pizzeria Il Piccolo Focone",
"type": "Italiano",
"location": {
"lat": 41.4090943,
"lng": 2.1795178},
"address": "Carrer del Dos de Maig, 268, 08025 Barcelona, Espanya",
"review" :4.3},
{"name": "Oval",
"type": "Hamburgueseria",
"location": {
"lat": 41.389973,
"lng": 2.159195},
"address": "Carrer de València, 199, 08011 Barcelona",
"review" :4.3},
{"name": "Kaguya-Hime",
"type": "Oriental",
"location": {
"lat": 41.4027429,
"lng": 2.16278189999999},
"address": "Carrer de Bailèn, 221, 08037 Barcelona, Espanya",
"review" :4.4},
{"name": "Les Truites",
"type": "Restaurante",
"location": {
"lat": 41.4043781,
"lng": 2.1369103},
"address": "Carrer d'Arimon, 22, 08022 Barcelona, Espanya",
"review" :4.3},
{"name": "Kathmandu Restaurante",
"type": "Nepali",
"location": {
"lat": 41.4007124,
"lng": 2.1646954},
"address": "Carrer de Còrsega, 421, 08037 Barcelona, Espanya",
"review" :4.1},
{"name": "Restaurant Ta mi",
"type": "Oriental",
"location": {
"lat": 41.4002621,
"lng": 2.1724838},
"address": "Carrer de Nàpols, 229, 08013 Barcelona, Espanya",
"review" :3.9},
{"name": "Ciudad Condal",
"type": "Restaurante",
"location": {
"lat": 41.3888129,
"lng": 2.1668475},
"address": "Rambla de Catalunya, 18, 08007 Barcelona",
"review" :4.5},
{"name": "Robata",
"type": "Oriental",
"location": {
"lat": 41.390515,
"lng": 2.158599},
"address": "Carrer d'Enric Granados, 55, 08008 Barcelona, Espanya",
"review" :4.5},
{"name": "Big Al's American Kitchen",
"type": "Hamburgueseria",
"location": {
"lat": 41.3894344,
"lng": 2.1501142},
"address": "Carrer de Còrsega, 178, 08036 Barcelona, Espanya",
"review" :4.4},
{"name": "Frankfurt Pedralbes",
"type": "Frankfurt",
"location": {
"lat": 41.3871529,
"lng": 2.112888099},
"address": "Jordi Girona, 2-4, 08034 Barcelona, Espanya",
"review" :4},
{"name": "2 Sillas y 1 Copa",
"type": "Cafe",
"location": {
"lat": 41.4703798,
"lng": 2.0892236},
"address": "Carrer Elies Rogent, 60, 08172 Sant Cugat del Vallès, Barcelona, Espanya",
"review" :5},
{"name": "Restaurante Tost Bocata'S",
"type": "Restaurante",
"location": {
"lat": 41.4705375,
"lng": 2.0904841},
"address": "Avinguda de la Torre Blanca, 13, 08172 Sant Cugat del Vallès, Barcelona, Espanya",
"review" :3.6},
{"name": "Fussimanya",
"type": "Restaurante",
"location": {
"lat": 41.976479,
"lng": 2.34992},
"address": "Ctra. Parador, Km. 7, 08519 Tavèrnoles, Barcelona, Espanya",
"review" :4.4},
{"name": "Masia Can Ferran",
"type": "Restaurante",
"location": {
"lat": 41.5128678,
"lng": 2.0516527},
"address": "Ctra. Molins de Rei, km14, 08192 Sant Quirze del Vallès, Barcelona, Espanya",
"review" :4.4},
{"name": "Casa Paloma",
"type": "Restaurante",
"location": {
"lat": 41.3939832,
"lng": 2.1472842},
"address": "Carrer de Casanova, 209, 08021 Barcelona, Espanya",
"review" :4.2},
{"name": "Restaurante La Peixera de Santa Carme",
"type": "Restaurante",
"location": {
"lat": 41.6060598,
"lng": 2.2914749},
"address": "Rambla Josep Tarradellas, 3, 08402 Granollers, Barcelona, Espanya",
"review" :3.5},
{"name": "Cal Boig Restaurant",
"type": "Restaurante",
"location": {
"lat": 41.537597,
"lng": 2.109277},
"address": "Carrer de Tetuan, 102, 08203 Sabadell, Barcelona, Espanya",
"review" :4.2},
{"name": "El Rincón del Bierzo",
"type": "Restaurante",
"location": {
"lat": 41.5292392,
"lng": 2.10811707},
"address": "Passeig del Comerç, 123, 08204 Sabadell, Barcelona, Espanya",
"review" :3.9},
{"name": "La Taberna de Lesseps",
"type": "Braseria",
"location": {
"lat": 41.4055653,
"lng": 2.1479739},
"address": "Carrer de Septimània, 23, 08006 Barcelona, Espanya",
"review" :4.3},
{"name": "Paco Meralgo",
"type": "Tapas",
"location": {
"lat": 41.391680599,
"lng": 2.1524923},
"address": "Carrer de Muntaner, 171, 08036 Barcelona, Espanya",
"review" :4.3},
{"name": "Tickets Bar",
"type": "Tapas",
"location": {
"lat": 41.3751767,
"lng": 2.1568459},
"address": "Av. del Paraŀlel, 164, 08015 Barcelona, Espanya",
"review" :4.5},
{"name": "El celler de can roca",
"type": "Restaurante",
"location": {
"lat": 41.993326499,
"lng": 2.808055599},
"address": "Carrer de Can Sunyer, 48, 17007 Girona, Espanya",
"review" :4.6},
{"name": "Pendejo Restaurante",
"type": "Mejicano",
"location": {
"lat": 41.5455676,
"lng": 2.09251299},
"address": "Carrer d'Amèrica, 15, 08205 Sabadell, Barcelona, Espanya",
"review" :3.7},
{"name": "Cal Ganxo",
"type": "Restaurante",
"location": {
"lat": 41.3163697,
"lng": 1.2368561},
"address": "Carrer de la Font F, 14, 43813 Masmolets, Tarragona, Espanya",
"review" :4.5},
{"name": "Sant Pau",
"type": "Restaurante",
"location": {
"lat": 41.6014899,
"lng": 2.62315},
"address": "Carrer Nou, 10, 08395 Sant Pol de Mar, Barcelona, Espanya",
"review" :4.7},
{"name": "La Chistera",
"type": "Restaurante",
"location": {
"lat": 42.8163002,
"lng": -1.6446679},
"address": "Plaza San Nicolás, 40, 31001 Pamplona, Navarra, Espanya",
"review" :3},
{"name": "Restaurante Asador Zubi Ondo",
"type": "Asador",
"location": {
"lat": 43.2847669,
"lng": -2.1578697},
"address": "Nafarroa Kalea, 47, Zarautz, Gipuzkoa, Espanya",
"review" :3.2},
{"name": "Casa Lucio",
"type": "Restaurante",
"location": {
"lat": 40.412064,
"lng": -3.709716},
"address": "Calle Cava Baja, 35, 28005 Madrid, Espanya",
"review" :4},
{"name": "Hípica Prats I Sansor",
"type": "Restaurante",
"location": {
"lat": 42.3636999,
"lng": 1.8374849},
"address": "25721, Lleida, Espanya",
"review" :4.4},
{"name": "Mirablau",
"type": "Restaurante",
"location": {
"lat": 41.4160433,
"lng": 2.1318833},
"address": "Plaça del Doctor Andreu, s/n, 08035 Barcelona, Espanya",
"review" :4.1},
{"name": "Restaurant Pitapes",
"type": "Restaurante",
"location": {
"lat": 41.5359367,
"lng": 2.2148756},
"address": "Carrer de Jacint Verdaguer, 6, 08100 Mollet del Vallès, Barcelona, Espanya",
"review" :4.1},
{"name": "La Barbacoa De Gràcia Restaurant",
"type": "Restaurante",
"location": {
"lat": 41.4065588,
"lng": 2.1597983},
"address": "Carrer del Torrent de les Flors, 65, 08024 Barcelona, Espanya",
"review" :3.7},
{"name": "Mas Fonoll",
"type": "Restaurante",
"location": {
"lat": 41.678258,
"lng": 2.137364},
"address": "Masia Mas fonoll ,apartat n°9, 08182 Sant Feliu de Codines, Barcelona, Espanya",
"review" :4.4},
{"name": "El Callejón",
"type": "Restaurante",
"location": {
"lat": 38.9917771,
"lng": -1.8531067},
"address": "Calle Guzmán el Bueno, 18, 02002 Albacete, Espanya",
"review" :4.3},
{"name": "Casa Sevilla",
"type": "Restaurante",
"location": {
"lat": 36.8376769,
"lng": -2.461830099},
"address": "Galería Comercial Almericentro, Calle Rueda López, s/n, 04004 Almería, Espanya",
"review" :4.3},
{"name": "Restaurante El Campero",
"type": "Restaurante",
"location": {
"lat": 36.188451,
"lng": -5.924806},
"address": "Avd. Constitucion, Local 5 C, 11160 Barbate, Cádiz, Espanya",
"review" :4.6},
{"name": "La Bodega",
"type": "Restaurante",
"location": {
"lat": 41.4006781,
"lng": 2.1471867},
"address": "Plaça de Molina, 2, 08006 Barcelona, Espanya",
"review" :4},
{"name": "Restaurante El Faro de Cádiz",
"type": "Restaurante",
"location": {
"lat": 36.528709,
"lng": -6.30377199},
"address": "Calle San Félix, 15, 11002 Cádiz, Espanya",
"review" :4.4},
{"name": "El Asador de Aranda",
"type": "Asador",
"location": {
"lat": 41.4133052,
"lng": 2.1342794},
"address": "Av. del Tibidabo, 31, 08022 Barcelona, Espanya",
"review" :4.3},
{"name": "Asadores Segovianos",
"type": "Asador",
"location": {
"lat": 36.5502567,
"lng": -4.6150758},
"address": "# lubina 3, los boliches,, Paseo Marítimo Rey de España, 61, 29640 Fuengirola, Málaga, Espanya",
"review" :4.9},
{"name": "Casa Juan Los Mellizos",
"type": "Restaurante",
"location": {
"lat": 36.612739,
"lng": -4.501942},
"address": "Calle de San Ginés, 20, 29620 Torremolinos, Málaga, Espanya",
"review" :4.2},
{"name": "Restaurante Jardín de Canalejas",
"type": "Restaurante",
"location": {
"lat": 36.530527,
"lng": -6.1898412},
"address": "Calle Vaqueros, 67, 11510 Puerto Real, Cádiz, Espanya",
"review" :4.5},
{"name": "Casa Paco Ceballos",
"type": "Restaurante",
"location": {
"lat": 36.5988274,
"lng": -6.2237697},
"address": "8 11500, Calle Ribera del Marisco, 6Acc, 11500 El Puerto de Sta María, Cádiz, Espanya",
"review" :4.2},
{"name": "Casa Bigote",
"type": "Braseria",
"location": {
"lat": 36.7891968,
"lng": -6.3513905},
"address": "Calle Pórtico Bajo de Guía, 10, 11540 Sanlúcar de Barrameda, Cádiz, Espanya",
"review" :4.4},
{"name": "Restaurant 7 Portes",
"type": "Restaurante",
"location": {
"lat": 41.3821893,
"lng": 2.1833987},
"address": "Passeig d'Isabel II, 14, 08003 Barcelona, Espanya",
"review" :4},
{"name": "Poma",
"type": "Marisqueria",
"location": {
"lat": 36.78925,
"lng": -6.351644599},
"address": "Av Portico de Bajo de Guía, 6, 11540 Sanlúcar de Barrameda, Cádiz, Espanya",
"review" :4.1},
{"name": "Restaurant Can Solé",
"type": "Restaurante",
"location": {
"lat": 41.378894,
"lng": 2.18837},
"address": "Carrer de Sant Carles, 4, 08003 Barcelona, Espanya",
"review" :4.2},
{"name": "Restaurante El Espigón",
"type": "Restaurante",
"location": {
"lat": 37.36853,
"lng": -5.98403},
"address": "Calle Bogotá, 1, 41013 Sevilla, Espanya",
"review" :4.2},
{"name": "Restaurante La Isla",
"type": "Restaurante",
"location": {
"lat": 37.385377,
"lng": -5.995127},
"address": "Calle Arfe, 25, 41001 Sevilla, Espanya",
"review" :3.7},
{"name": "Restaurante Asador Espadín",
"type": "Asador",
"location": {
"lat": 37.646485,
"lng": -2.075972},
"address": "Calle Almez, 2, 04820 Vélez-Rubio, Almería",
"review" :4.7},
{"name": "Restaurant Ca l'Eduard",
"type": "Restaurante",
"location": {
"lat": 41.526139,
"lng": 2.037383},
"address": "Carrer de la Verge de Fàtima 1, 08228 Les Fonts, Barcelona",
"review" :4.3},
{"name": "SOCO Gracia",
"type": "Restaurante",
"location": {
"lat": 41.408332,
"lng": 2.163463},
"address": "Carrer de Pi i Margall, 41, 08024 Barcelona",
"review" :4},
{"name": "SOCO Poblenou",
"type": "Restaurante",
"location": {
"lat": 41.401372,
"lng": 2.205304},
"address": "Carrer de Bilbao, 31, 08005 Barcelona",
"review" :4},
{"name": "Restaurante Ca la Iaia",
"type": "Restaurante",
"location": {
"lat": 41.408724,
"lng": 2.160258},
"address": "Carrer de la Providència, 99, 08024 Barcelona",
"review" :4.5},
{"name": "Cantina Mexicana",
"type": "Mejicano",
"location": {
"lat": 41.406654,
"lng": 2.160319},
"address": "Carrer de l'Encarnació, 51, 08024 Barcelona",
"review" :3.2},
{"name": "Kao Dim Sum",
"type": "Oriental",
"location": {
"lat": 41.40385,
"lng": 2.133917},
"address": "Carrer del Bisbe Sivilla, 48, 08022 Barcelona",
"review" :4.1},
{"name": "O Xestal 2",
"type": "Bar",
"location": {
"lat": 41.405789,
"lng": 2.134566},
"address": "Calle de Muntaner, 560, 08022 Barcelona",
"review" :4.1},
{"name": "Restaurant Xinès La Paz",
"type": "Oriental",
"location": {
"lat": 41.404924,
"lng": 2.135742},
"address": "Carrer de Muntaner, 532, 08022 Barcelona",
"review" :3.8}]